{
    "listing_54071834": {
        "name": "3 bed semi-detached house to rent",
        "price": "\u00a31,150 pcm",
        "address": "Church View, Nottingham NG11",
        "link": "/to-rent/details/54071834/?search_identifier=9395b6df92a1e9dd4ce767ad9e55add3d78bbd164e484da9f8f255a837a5b41d",
        "coordinates": {
            "lat": 52.8599854,
            "lng": -1.1355831
        }
    },
    "listing_65949490": {
        "name": "3 bed property to rent",
        "price": "\u00a31,200 pcm",
        "address": "Bridgnorth Drive, Nottingham NG11",
        "link": "/to-rent/details/65949490/?search_identifier=9395b6df92a1e9dd4ce767ad9e55add3d78bbd164e484da9f8f255a837a5b41d",
        "coordinates": {
            "lat": 52.9078167,
            "lng": -1.1804892
        }
    },
    "listing_65949486": {
        "name": "2 bed terraced house to rent",
        "price": "\u00a3850 pcm",
        "address": "Tamworth Road, Nottingham NG10",
        "link": "/to-rent/details/65949486/?search_identifier=9395b6df92a1e9dd4ce767ad9e55add3d78bbd164e484da9f8f255a837a5b41d",
        "coordinates": {
            "lat": 52.8826208,
            "lng": -1.2897945
        }
    },
    "listing_61235022": {
        "name": "Studio to rent",
        "price": "\u00a3750 pcm",
        "address": "Bentinck Road, Nottingham NG7",
        "link": "/to-rent/details/61235022/?search_identifier=9395b6df92a1e9dd4ce767ad9e55add3d78bbd164e484da9f8f255a837a5b41d",
        "coordinates": {
            "lat": 52.9626538,
            "lng": -1.1688092
        }
    },
    "listing_60638124": {
        "name": "2 bed flat to rent",
        "price": "\u00a3850 pcm",
        "address": "4 Station Street, Nottingham NG10",
        "link": "/to-rent/details/60638124/?search_identifier=9395b6df92a1e9dd4ce767ad9e55add3d78bbd164e484da9f8f255a837a5b41d",
        "coordinates": {
            "lat": 52.89600739999999,
            "lng": -1.2654175
        }
    },
    "listing_60346177": {
        "name": "3 bed property to rent",
        "price": "\u00a31,350 pcm",
        "address": "Ranelagh Grove, Nottingham NG8",
        "link": "/to-rent/details/60346177/?search_identifier=9395b6df92a1e9dd4ce767ad9e55add3d78bbd164e484da9f8f255a837a5b41d",
        "coordinates": {
            "lat": 52.9558238,
            "lng": -1.2030156
        }
    },
    "listing_62838043": {
        "name": "2 bed flat to rent",
        "price": "\u00a31,150 pcm",
        "address": "Bridgford Point, Nottingham NG2",
        "link": "/to-rent/details/62838043/?search_identifier=9395b6df92a1e9dd4ce767ad9e55add3d78bbd164e484da9f8f255a837a5b41d",
        "coordinates": {
            "lat": 52.9277802,
            "lng": -1.1294491
        }
    },
    "listing_65949455": {
        "name": "3 bed flat to rent",
        "price": "\u00a3850 pcm",
        "address": "Church Street, Nottingham NG11",
        "link": "/to-rent/details/65949455/?search_identifier=9395b6df92a1e9dd4ce767ad9e55add3d78bbd164e484da9f8f255a837a5b41d",
        "coordinates": {
            "lat": 52.8915288,
            "lng": -1.1511035
        }
    },
    "listing_65949456": {
        "name": "2 bed flat to rent",
        "price": "\u00a3900 pcm",
        "address": "Hamilton Drive, Nottingham NG7",
        "link": "/to-rent/details/65949456/?search_identifier=9395b6df92a1e9dd4ce767ad9e55add3d78bbd164e484da9f8f255a837a5b41d",
        "coordinates": {
            "lat": 52.9487644,
            "lng": -1.1574044
        }
    },
    "listing_65948815": {
        "name": "3 bed semi-detached house to rent",
        "price": "\u00a31,300 pcm",
        "address": "Somersby Road, Mapperley, Nottingham NG3",
        "link": "/to-rent/details/65948815/?search_identifier=9395b6df92a1e9dd4ce767ad9e55add3d78bbd164e484da9f8f255a837a5b41d",
        "coordinates": {
            "lat": 52.9898558,
            "lng": -1.1182688
        }
    },
    "listing_65948620": {
        "name": "3 bed property to rent",
        "price": "\u00a31,100 pcm",
        "address": "Westland Avenue, Hucknall, Nottingham NG15",
        "link": "/to-rent/details/65948620/?search_identifier=9395b6df92a1e9dd4ce767ad9e55add3d78bbd164e484da9f8f255a837a5b41d",
        "coordinates": {
            "lat": 53.0229643,
            "lng": -1.2267152
        }
    },
    "listing_65948613": {
        "name": "1 bed flat to rent",
        "price": "\u00a3675 pcm",
        "address": "Chilwell Road, Beeston, Nottingham NG9",
        "link": "/to-rent/details/65948613/?search_identifier=9395b6df92a1e9dd4ce767ad9e55add3d78bbd164e484da9f8f255a837a5b41d",
        "coordinates": {
            "lat": 52.9243576,
            "lng": -1.2182166
        }
    },
    "listing_63753249": {
        "name": "6 bed property to rent",
        "price": "\u00a3520 pcm",
        "address": "Arthur Avenue, Nottingham NG7",
        "link": "/to-rent/details/63753249/?search_identifier=9395b6df92a1e9dd4ce767ad9e55add3d78bbd164e484da9f8f255a837a5b41d",
        "coordinates": {
            "lat": 52.9507439,
            "lng": -1.1746583
        }
    },
    "listing_65948429": {
        "name": "3 bed detached house to rent",
        "price": "\u00a31,100 pcm",
        "address": "Doveridge Avenue, Carlton, Nottingham NG4",
        "link": "/to-rent/details/65948429/?search_identifier=9395b6df92a1e9dd4ce767ad9e55add3d78bbd164e484da9f8f255a837a5b41d",
        "coordinates": {
            "lat": 52.9716528,
            "lng": -1.0773592
        }
    },
    "listing_65948387": {
        "name": "4 bed property to rent",
        "price": "\u00a3520 pcm",
        "address": "Arthur Avenue, Nottingham NG7",
        "link": "/to-rent/details/65948387/?search_identifier=9395b6df92a1e9dd4ce767ad9e55add3d78bbd164e484da9f8f255a837a5b41d",
        "coordinates": {
            "lat": 52.9507439,
            "lng": -1.1746583
        }
    },
    "listing_65948344": {
        "name": "4 bed flat to rent",
        "price": "\u00a3520 pcm",
        "address": "Arthur Avenue, Nottingham NG7",
        "link": "/to-rent/details/65948344/?search_identifier=9395b6df92a1e9dd4ce767ad9e55add3d78bbd164e484da9f8f255a837a5b41d",
        "coordinates": {
            "lat": 52.9507439,
            "lng": -1.1746583
        }
    },
    "listing_65948105": {
        "name": "6 bed property to rent",
        "price": "\u00a3715 pcm",
        "address": "Teversal Avenue, Nottingham NG7",
        "link": "/to-rent/details/65948105/?search_identifier=9395b6df92a1e9dd4ce767ad9e55add3d78bbd164e484da9f8f255a837a5b41d",
        "coordinates": {
            "lat": 52.9530311,
            "lng": -1.1720137
        }
    },
    "listing_53209568": {
        "name": "6 bed property to rent",
        "price": "\u00a3715 pcm",
        "address": "Teversal Avenue, Nottingham NG7",
        "link": "/to-rent/details/53209568/?search_identifier=9395b6df92a1e9dd4ce767ad9e55add3d78bbd164e484da9f8f255a837a5b41d",
        "coordinates": {
            "lat": 52.9530311,
            "lng": -1.1720137
        }
    },
    "listing_53206528": {
        "name": "7 bed property to rent",
        "price": "\u00a3607 pcm",
        "address": "Harlaxton Drive, Nottingham NG7",
        "link": "/to-rent/details/53206528/?search_identifier=9395b6df92a1e9dd4ce767ad9e55add3d78bbd164e484da9f8f255a837a5b41d",
        "coordinates": {
            "lat": 52.9504976,
            "lng": -1.168467
        }
    },
    "listing_53206540": {
        "name": "6 bed property to rent",
        "price": "\u00a3585 pcm",
        "address": "Derby Road, Lenton, Nottingham NG7",
        "link": "/to-rent/details/53206540/?search_identifier=9395b6df92a1e9dd4ce767ad9e55add3d78bbd164e484da9f8f255a837a5b41d",
        "coordinates": {
            "lat": 52.9484,
            "lng": -1.1810549
        }
    },
    "listing_53206497": {
        "name": "8 bed property to rent",
        "price": "\u00a3607 pcm",
        "address": "Lenton Boulevard, Lenton, Nottingham NG7",
        "link": "/to-rent/details/53206497/?search_identifier=9395b6df92a1e9dd4ce767ad9e55add3d78bbd164e484da9f8f255a837a5b41d",
        "coordinates": {
            "lat": 52.951179,
            "lng": -1.1748152
        }
    },
    "listing_53206560": {
        "name": "6 bed property to rent",
        "price": "\u00a3607 pcm",
        "address": "Lenton Boulevard, Lenton, Nottingham NG7",
        "link": "/to-rent/details/53206560/?search_identifier=9395b6df92a1e9dd4ce767ad9e55add3d78bbd164e484da9f8f255a837a5b41d",
        "coordinates": {
            "lat": 52.951179,
            "lng": -1.1748152
        }
    },
    "listing_65947469": {
        "name": "2 bed semi-detached house to rent",
        "price": "\u00a31,200 pcm",
        "address": "Leander Close, Wilford NG11",
        "link": "/to-rent/details/65947469/?search_identifier=9395b6df92a1e9dd4ce767ad9e55add3d78bbd164e484da9f8f255a837a5b41d",
        "coordinates": {
            "lat": 52.9272792,
            "lng": -1.159301
        }
    },
    "listing_53206537": {
        "name": "6 bed property to rent",
        "price": "\u00a3607 pcm",
        "address": "Balfour Road, Nottingham NG7",
        "link": "/to-rent/details/53206537/?search_identifier=9395b6df92a1e9dd4ce767ad9e55add3d78bbd164e484da9f8f255a837a5b41d",
        "coordinates": {
            "lat": 52.9547185,
            "lng": -1.1691416
        }
    },
    "listing_53206541": {
        "name": "8 bed property to rent",
        "price": "\u00a3607 pcm",
        "address": "Derby Road, Lenton, Nottingham NG7",
        "link": "/to-rent/details/53206541/?search_identifier=9395b6df92a1e9dd4ce767ad9e55add3d78bbd164e484da9f8f255a837a5b41d",
        "coordinates": {
            "lat": 52.9484,
            "lng": -1.1810549
        }
    }
}